{"type":"FeatureCollection","bbox":[-122.75852689375021,46.75611398508709,-122.00718227428658,47.3460924620298],"features":[{"type":"Feature","geometry":{"type":"Point","coordinates":[-122.41313813125372,47.24737553060044]},"properties":{"OBJECTID":"1","WWTP_NAME":"Tacoma Central WWTP"}},{"type":"Feature","geometry":{"type":"Point","coordinates":[-122.32234650279062,47.20503821777036]},"properties":{"OBJECTID":"2","WWTP_NAME":"Puyallup WWTP"}},{"type":"Feature","geometry":{"type":"Point","coordinates":[-122.25548111780802,47.19951124408677]},"properties":{"OBJECTID":"3","WWTP_NAME":"Sumner WWTP"}},{"type":"Feature","geometry":{"type":"Point","coordinates":[-122.63932002261846,47.132709380301776]},"properties":{"OBJECTID":"4","WWTP_NAME":"Tatsolo Point WWTP"}},{"type":"Feature","geometry":{"type":"Point","coordinates":[-122.48972216048233,47.28565708684666]},"properties":{"OBJECTID":"5","WWTP_NAME":"Tacoma North End WWTP"}},{"type":"Feature","geometry":{"type":"Point","coordinates":[-122.21461517237806,47.108253449064925]},"properties":{"OBJECTID":"6","WWTP_NAME":"Orting WWTP"}},{"type":"Feature","geometry":{"type":"Point","coordinates":[-122.59544239356995,47.336959342414616]},"properties":{"OBJECTID":"7","WWTP_NAME":"Gig Harbor WWTP"}},{"type":"Feature","geometry":{"type":"Point","coordinates":[-122.03497181005561,47.16774032301056]},"properties":{"OBJECTID":"8","WWTP_NAME":"Buckley WWTP"}},{"type":"Feature","geometry":{"type":"Point","coordinates":[-122.05943643512049,47.07848368475588]},"properties":{"OBJECTID":"9","WWTP_NAME":"Carbonado WWTP"}},{"type":"Feature","geometry":{"type":"Point","coordinates":[-122.31561441271573,47.222946482322065]},"properties":{"OBJECTID":"10","WWTP_NAME":"Cherrywood MHP WWTP"}},{"type":"Feature","geometry":{"type":"Point","coordinates":[-122.26954616334032,46.86090668317456]},"properties":{"OBJECTID":"11","WWTP_NAME":"Eatonville WWTP"}},{"type":"Feature","geometry":{"type":"Point","coordinates":[-122.19664223446622,46.76579710798675]},"properties":{"OBJECTID":"12","WWTP_NAME":"Elbe WWTP"}},{"type":"Feature","geometry":{"type":"Point","coordinates":[-122.6615232195119,47.19650700715466]},"properties":{"OBJECTID":"13","WWTP_NAME":"McNeil Island WWTP"}},{"type":"Feature","geometry":{"type":"Point","coordinates":[-122.00216560720901,47.16707150527113]},"properties":{"OBJECTID":"14","WWTP_NAME":"Rainier School WWTP"}},{"type":"Feature","geometry":{"type":"Point","coordinates":[-122.05053864384167,47.10885995339767]},"properties":{"OBJECTID":"15","WWTP_NAME":"Wilkeson WWTP"}},{"type":"Feature","geometry":{"type":"Point","coordinates":[-122.7764308314029,47.1823283718831]},"properties":{"OBJECTID":"16","WWTP_NAME":"Taylor Bay WWTP"}},{"type":"Feature","geometry":{"type":"Point","coordinates":[-122.10229977157905,47.13652591847255]},"properties":{"OBJECTID":"17","WWTP_NAME":"South Prairie WWTP"}},{"type":"Feature","geometry":{"type":"Point","coordinates":[-122.37201560324521,47.32763061636283]},"properties":{"OBJECTID":"18","WWTP_NAME":"Lakota WWTP"}},{"type":"Feature","geometry":{"type":"Point","coordinates":[-122.57464543387468,47.194086176037295]},"properties":{"OBJECTID":"19","WWTP_NAME":"Chambers Creek Regional WWTP"}}]}
